$ADVER,3080,2.2
$GPRMC,194204.735,A,3537.8010,S,17432.2904,E,0.05,173.14,220712,,,A*7E
$GPGGA,194209.000,3537.8011,S,17432.2901,E,1,06,1.5,103.9,M,30.6,M,,0000*49
$GPGSA,A,3,12,04,02,17,05,09,,,,,,,2.2,1.5,1.6*3E
$GPGSV,3,1,11,02,71,181,38,12,62,262,32,05,46,003,34,04,40,131,32*7D
$GPGSV,3,2,11,17,10,074,34,09,06,312,29,10,54,102,24,25,28,226,25*76
$GPGSV,3,3,11,29,09,240,,13,04,113,,27,00,328,22*44
$GPRMC,194209.000,A,3537.8011,S,17432.2901,E,0.00,230.14,220712,,,A*77
$GPVTG,230.14,T,,M,0.00,N,0.0,K,A*09
$GPGGA,194214.000,3537.8011,S,17432.2901,E,1,06,1.5,103.9,M,30.6,M,,0000*45
$GPGSA,A,3,12,04,02,17,05,09,,,,,,,2.2,1.5,1.6*3E
$GPGSV,3,1,11,02,71,181,38,12,62,262,33,05,46,003,34,04,40,131,32*7C
$GPGSV,3,2,11,17,10,074,34,09,06,312,28,10,54,102,24,25,28,226,25*77
$GPGSV,3,3,11,29,09,240,,13,04,113,,27,00,328,22*44
$GPRMC,194214.000,A,3537.8011,S,17432.2901,E,0.00,230.14,220712,,,A*7B
$GPVTG,230.14,T,,M,0.00,N,0.0,K,A*09
$GPGGA,194219.000,3537.8011,S,17432.2901,E,1,06,1.5,103.9,M,30.6,M,,0000*48
$GPGSA,A,3,12,04,02,17,05,09,,,,,,,2.2,1.5,1.6*3E
$GPGSV,3,1,11,02,71,181,38,12,62,263,33,10,54,102,24,05,46,003,35*7B
$GPGSV,3,2,11,04,40,131,32,25,28,226,25,17,10,074,34,29,09,240,*71
$GPGSV,3,3,11,09,06,312,28,13,04,113,,27,00,328,27*40
$GPRMC,194219.000,A,3537.8011,S,17432.2901,E,0.00,230.14,220712,,,A*76
$GPGGA,194224.000,3537.8011,S,17432.2901,E,1,06,1.5,103.9,M,30.6,M,,0000*46
$GPGSA,A,3,12,04,02,17,05,09,,,,,,,2.2,1.5,1.6*3E
$GPGSV,3,1,11,02,71,181,38,12,62,263,33,10,54,102,24,05,46,003,35*7B
$GPGSV,3,2,11,04,40,131,32,25,28,226,25,17,10,074,34,29,09,240,*71
$GPGSV,3,3,11,09,06,312,28,13,04,113,,27,00,328,26*41
$GPRMC,194224.000,A,3537.8011,S,17432.2901,E,0.00,230.14,220712,,,A*78
$GPVTG,230.14,T,,M,0.00,N,0.0,K,A*09
$GPGGA,194229.000,3537.8011,S,17432.2901,E,1,06,1.5,103.9,M,30.6,M,,0000*4B
$GPGSA,A,3,12,04,02,17,05,09,,,,,,,2.2,1.5,1.6*3E
$GPGSV,3,1,11,02,71,181,38,12,62,263,33,10,54,102,24,05,46,003,35*7B
$GPGSV,3,2,11,04,40,131,32,25,28,226,25,17,10,074,34,29,09,240,*71
$GPGSV,3,3,11,09,06,312,28,13,04,113,,27,00,328,26*41
$GPRMC,194229.000,A,3537.8011,S,17432.2901,E,0.00,230.14,220712,,,A*75
$GPVTG,230.14,T,,M,0.00,N,0.0,K,A*09
$GPGGA,194234.000,3537.8011,S,17432.2901,E,1,06,1.5,103.9,M,30.6,M,,0000*47
$GPGSA,A,3,12,04,02,17,05,09,,,,,,,2.2,1.5,1.6*3E
$GPGSV,3,1,11,02,71,181,38,12,62,263,33,10,54,102,25,05,46,003,35*7A
$GPGSV,3,2,11,04,40,131,32,25,28,226,25,17,10,074,34,29,09,240,*71
$GPGSV,3,3,11,09,06,312,28,13,04,113,,27,00,328,25*42
$GPRMC,194234.000,A,3537.8011,S,17432.2901,E,0.00,230.14,220712,,,A*79
$GPVTG,230.14,T,,M,0.00,N,0.0,K,A*09
$GPGGA,194239.000,3537.8011,S,17432.2901,E,1,06,1.5,103.9,M,30.6,M,,0000*4A
$GPGSA,A,3,12,04,02,17,05,09,,,,,,,2.2,1.5,1.6*3E
$GPGSV,3,1,11,02,71,181,38,12,62,263,33,10,54,102,25,05,46,003,35*7A
$GPGSV,3,2,11,04,40,131,31,25,28,226,25,17,10,074,34,29,09,240,*72
$GPGSV,3,3,11,09,06,312,28,13,04,113,,27,00,328,24*43
$GPRMC,194239.000,A,3537.8011,S,17432.2901,E,0.00,230.14,220712,,,A*74
$GPVTG,230.14,T,,M,0.00,N,0.0,K,A*09
$GPGGA,194244.000,3537.8011,S,17432.2901,E,1,06,1.5,103.9,M,30.6,M,,0000*40
$GPGSA,A,3,12,04,02,17,05,09,,,,,,,2.2,1.5,1.6*3E
$GPGSV,3,1,11,02,71,181,39,12,62,263,33,10,54,102,25,05,46,003,35*7B
$GPGSV,3,2,11,04,40,131,31,25,28,226,26,17,10,074,34,29,09,240,*71
$GPRMC,194244.000,A,3537.8011,S,17432.2901,E,0.00,230.14,220712,,,A*7E
$GPVTG,230.14,T,,M,0.00,N,0.0,K,A*09
$GPGGA,194249.000,3537.8011,S,17432.2901,E,1,06,1.5,103.9,M,30.6,M,,0000*4D
$GPGSA,A,3,12,04,02,17,05,09,,,,,,,2.2,1.5,1.6*3E
$GPGSV,3,1,11,02,71,181,39,12,62,263,34,10,54,102,24,05,46,003,35*7D
$GPGSV,3,2,11,04,40,130,31,25,28,226,26,17,10,074,33,29,10,240,*7F
$GPGSV,3,3,11,09,05,312,28,13,04,113,,27,00,328,24*40
$GPRMC,194249.000,A,3537.8011,S,17432.2901,E,0.00,230.14,220712,,,A*73
$GPVTG,230.14,T,,M,0.00,N,0.0,K,A*09
$GPGGA,194254.000,3537.8011,S,17432.2901,E,1,06,1.5,103.9,M,30.6,M,,0000*41
$GPGSA,A,3,12,04,02,17,05,09,,,,,,,2.2,1.5,1.6*3E
$GPGSV,3,1,11,02,71,181,39,12,62,263,34,10,54,102,24,05,46,003,35*7D
$GPGSV,3,2,11,04,40,130,31,25,28,226,26,17,10,074,33,29,10,240,*7F
$GPGSV,3,3,11,09,05,312,28,13,04,113,,27,00,328,22*46
$GPRMC,194254.000,A,3537.8011,S,17432.2901,E,0.00,230.14,220712,,,A*7F
$GPVTG,230.14,T,,M,0.00,N,0.0,K,A*09
$GPGGA,194259.000,3537.8011,S,17432.2901,E,1,06,1.5,103.9,M,30.6,M,,0000*4C
$GPGSA,A,3,12,04,02,17,05,09,,,,,,,2.2,1.5,1.6*3E
$GPGSV,3,1,11,02,71,181,39,12,62,263,34,10,54,102,23,05,46,003,35*7A
$GPGSV,3,2,11,04,40,130,31,25,28,226,26,17,10,074,33,29,10,240,*7F
$GPGSV,3,3,11,09,05,312,28,13,04,113,,27,00,328,21*45
$GPRMC,194259.000,A,3537.8011,S,17432.2901,E,0.00,230.14,220712,,,A*72
$GPVTG,230.14,T,,M,0.00,N,0.0,K,A*09
$GPGGA,194304.000,3537.8011,S,17432.2901,E,1,06,1.5,103.9,M,30.6,M,,0000*45
$GPGSA,A,3,12,04,02,17,05,09,,,,,,,2.2,1.5,1.6*3E
$GPGSV,3,1,11,02,71,181,39,12,62,263,34,10,54,102,23,05,46,003,35*7A
$GPGSV,3,2,11,04,40,130,31,25,28,226,25,17,10,074,33,29,10,240,*7C
$GPGSV,3,3,11,09,05,312,28,13,04,113,,27,00,328,15*42
$GPRMC,194304.000,A,3537.8011,S,17432.2901,E,0.00,230.14,220712,,,A*7B
$GPVTG,230.14,T,,M,0.00,N,0.0,K,A*09
$GPGGA,194309.000,3537.8011,S,17432.2901,E,1,06,1.5,103.9,M,30.6,M,,0000*48
$GPGSA,A,3,12,04,02,17,05,09,,,,,,,2.2,1.5,1.6*3E
$GPGSV,3,1,11,02,71,181,39,12,62,263,34,10,54,102,24,05,46,003,35*7D
$GPGSV,3,2,11,04,40,130,31,25,28,226,25,17,10,074,33,29,10,240,*7C
$GPGSV,3,3,11,09,05,312,27,13,04,113,,27,00,328,15*4D
$GPRMC,194309.000,A,3537.8011,S,17432.2901,E,0.00,230.14,220712,,,A*76
$GPVTG,230.14,T,,M,0.00,N,0.0,K,A*09
$GPGGA,194314.000,3537.8011,S,17432.2901,E,1,06,1.5,103.9,M,30.6,M,,0000*44
$GPGSA,A,3,12,04,02,17,05,09,,,,,,,2.2,1.5,1.6*3E
$GPGSV,3,1,11,02,71,181,39,12,62,263,34,10,54,102,24,05,46,003,35*7D
$GPGSV,3,2,11,04,40,130,31,25,28,226,25,17,10,074,33,29,10,240,*7C
$GPGSV,3,3,11,09,05,312,27,13,04,113,,27,00,328,15*4D
$GPVTG,230.14,T,,M,0.00,N,0.0,K,A*09
$GPGGA,194319.000,3537.8011,S,17432.2901,E,1,06,1.5,103.9,M,30.6,M,,0000*49
$GPGSA,A,3,12,04,02,17,05,09,,,,,,,2.2,1.5,1.6*3E
$GPGSV,3,1,11,02,71,180,39,12,62,264,34,10,54,103,24,05,47,003,34*7A
$GPGSV,3,2,11,04,40,130,30,25,28,226,25,17,10,074,32,29,10,240,*7C
$GPGSV,3,3,11,09,05,313,27,13,04,113,,27,00,328,15*4C
$GPRMC,194319.000,A,3537.8011,S,17432.2901,E,0.00,230.14,220712,,,A*77
$GPVTG,230.14,T,,M,0.00,N,0.0,K,A*09
$GPGGA,194324.000,3537.8011,S,17432.2901,E,1,06,1.5,103.9,M,30.6,M,,0000*47
$GPGSA,A,3,12,04,02,17,05,09,,,,,,,2.2,1.5,1.6*3E
$GPGSV,3,1,11,02,71,180,39,12,62,264,34,10,54,103,24,05,47,003,35*7B
$GPGSV,3,2,11,04,40,130,30,25,28,226,26,17,10,074,32,29,10,240,*7F
$GPGSV,3,3,11,09,05,313,28,13,04,113,,27,00,328,14*42
$GPRMC,194324.000,A,3537.8011,S,17432.2901,E,0.00,230.14,220712,,,A*79
$GPVTG,230.14,T,,M,0.00,N,0.0,K,A*09
$GPGGA,194329.000,3537.8011,S,17432.2901,E,1,06,1.5,103.9,M,30.6,M,,0000*4A
$GPGSA,A,3,12,04,02,17,05,09,,,,,,,2.2,1.5,1.6*3E
$GPGSV,3,1,11,02,71,180,39,12,62,264,34,10,54,103,24,05,47,003,35*7B
$GPGSV,3,2,11,04,40,130,30,25,28,226,26,17,10,074,32,29,10,240,*7F
$GPGSV,3,3,11,09,05,313,28,13,04,113,,27,00,328,14*42
$GPRMC,194329.000,A,3537.8011,S,17432.2901,E,0.00,230.14,220712,,,A*74
$GPVTG,230.14,T,,M,0.00,N,0.0,K,A*09
$GPGGA,194334.000,3537.8011,S,17432.2901,E,1,06,1.5,103.9,M,30.6,M,,0000*46
$GPGSA,A,3,12,04,02,17,05,09,,,,,,,2.2,1.5,1.6*3E
$GPGSV,3,1,11,02,71,180,39,12,62,264,34,10,54,103,24,05,47,003,34*7A
$GPGSV,3,2,11,04,40,130,30,25,28,226,26,17,10,074,32,29,10,240,*7F
$GPGSV,3,3,11,09,05,313,29,13,04,113,,27,00,328,15*42
$GPRMC,194334.000,A,3537.8011,S,17432.2901,E,0.00,230.14,220712,,,A*78
$GPVTG,230.14,T,,M,0.00,N,0.0,K,A*09
$GPGGA,194339.000,3537.8011,S,17432.2901,E,1,06,1.5,103.9,M,30.6,M,,0000*4B
$GPGSA,A,3,12,04,02,17,05,09,,,,,,,2.2,1.5,1.6*3E
$GPGSV,3,1,11,02,71,180,39,12,62,264,35,10,54,103,24,05,47,003,34*7B
$GPGSV,3,2,11,04,40,130,30,25,28,226,26,17,10,074,32,29,10,240,*7F
$GPGSV,3,3,11,09,05,313,29,13,04,113,,27,00,328,17*40
$GPRMC,194339.000,A,3537.8011,S,17432.2901,E,0.00,230.14,220712,,,A*75
$GPVTG,230.14,T,,M,0.00,N,0.0,K,A*09
$GPGGA,194342.000,3537.8011,S,17432.2901,E,1,06,1.5,103.9,M,30.6,M,,0000*47
$GPGSA,A,3,12,04,02,17,05,09,,,,,,,2.2,1.5,1.6*3E
$GPGSV,3,1,11,02,71,180,39,12,62,264,35,10,54,103,24,05,47,003,34*7B
$GPGSV,3,2,11,04,40,130,30,25,28,226,26,17,10,074,32,29,10,240,*7F
$GPGSV,3,3,11,09,05,313,29,13,04,113,,27,00,328,19*4E
$GPRMC,194342.000,A,3537.8011,S,17432.2901,E,0.00,230.14,220712,,,A*79
$GPGGA,194347.000,3537.8011,S,17432.2901,E,1,06,1.5,103.9,M,30.6,M,,0000*42
$GPGSA,A,3,12,04,02,17,05,09,,,,,,,2.2,1.5,1.6*3E
$GPGSV,3,1,11,02,71,179,39,12,62,264,35,10,54,103,24,05,47,003,34*7D
$GPGSV,3,2,11,04,39,130,30,25,28,226,26,29,10,240,,17,10,073,31*75
$GPGSV,3,3,11,09,05,313,29,13,04,113,,27,00,328,20*44
$GPRMC,194347.000,A,3537.8011,S,17432.2901,E,0.00,230.14,220712,,,A*7C
$GPVTG,230.14,T,,M,0.00,N,0.0,K,A*09
$GPGGA,194352.000,3537.8011,S,17432.2901,E,1,06,1.5,103.9,M,30.6,M,,0000*46
$GPGSA,A,3,12,04,02,17,05,09,,,,,,,2.2,1.5,1.6*3E
$GPGSV,3,1,11,02,71,179,39,12,62,264,35,10,54,103,23,05,47,003,34*7A
$GPGSV,3,2,11,04,39,130,30,25,28,226,26,29,10,240,,17,10,073,31*75
$GPGSV,3,3,11,09,05,313,29,13,04,113,,27,00,328,19*4E
$GPRMC,194352.000,A,3537.8011,S,17432.2901,E,0.00,230.14,220712,,,A*78
$GPVTG,230.14,T,,M,0.00,N,0.0,K,A*09
$GPGGA,194357.000,3537.8011,S,17432.2901,E,1,06,1.5,103.9,M,30.6,M,,0000*43
$GPGSA,A,3,12,04,02,17,05,09,,,,,,,2.2,1.5,1.6*3E
$GPGSV,3,1,11,02,71,179,39,12,62,264,35,10,54,103,23,05,47,003,34*7A
$GPGSV,3,2,11,04,39,130,30,25,28,226,26,29,10,240,,17,10,073,31*75
$GPGSV,3,3,11,09,05,313,29,13,04,113,,27,00,328,19*4E
$GPRMC,194357.000,A,3537.8011,S,17432.2901,E,0.00,230.14,220712,,,A*7D
$GPVTG,230.14,T,,M,0.00,N,0.0,K,A*09
$GPGGA,194402.000,3537.8011,S,17432.2901,E,1,06,1.5,103.9,M,30.6,M,,0000*44
$GPGSA,A,3,12,04,02,17,05,09,,,,,,,2.2,1.5,1.6*3E
$GPGSV,3,1,11,02,71,179,39,12,62,264,35,10,54,103,23,05,47,003,34*7A
$GPGSV,3,2,11,04,39,130,30,25,28,226,26,29,10,240,,17,10,073,31*75
$GPGSV,3,3,11,09,05,313,29,13,04,113,,27,00,328,19*4E
$GPRMC,194402.000,A,3537.8011,S,17432.2901,E,0.00,230.14,220712,,,A*7A
$GPVTG,230.14,T,,M,0.00,N,0.0,K,A*09
$GPGGA,194407.000,3537.8011,S,17432.2901,E,1,06,1.5,103.9,M,30.6,M,,0000*41
$GPGSA,A,3,12,04,02,17,05,09,,,,,,,2.2,1.5,1.6*3E
$GPGSV,3,1,11,02,71,179,38,12,62,264,35,10,54,103,23,05,47,003,34*7B
$GPGSV,3,2,11,04,39,130,30,25,28,226,26,29,10,240,,17,10,073,31*75
$GPRMC,194407.000,A,3537.8011,S,17432.2901,E,0.00,230.14,220712,,,A*7F
$GPVTG,230.14,T,,M,0.00,N,0.0,K,A*09
$GPGGA,194412.000,3537.8011,S,17432.2901,E,1,06,1.5,103.9,M,30.6,M,,0000*45
$GPGSA,A,3,12,04,02,17,05,09,,,,,,,2.2,1.5,1.6*3E
$GPGSV,3,1,11,02,71,179,38,12,62,264,35,10,54,103,23,05,47,003,34*7B
$GPGSV,3,2,11,04,39,130,30,25,28,226,26,29,10,240,,17,10,073,30*74
$GPGSV,3,3,11,09,05,313,30,13,04,113,,27,00,328,20*4C
$GPRMC,194412.000,A,3537.8011,S,17432.2901,E,0.00,230.14,220712,,,A*7B
$GPVTG,230.14,T,,M,0.00,N,0.0,K,A*09
$GPGGA,194417.000,3537.8011,S,17432.2901,E,1,06,1.5,103.9,M,30.6,M,,0000*40
$GPGSA,A,3,12,04,02,17,05,09,,,,,,,2.2,1.5,1.6*3E
$GPGSV,3,1,11,02,71,179,38,12,62,265,35,10,54,103,23,05,47,003,33*7D
$GPGSV,3,2,11,04,39,130,30,25,28,226,26,29,10,240,,17,10,073,30*74
$GPGSV,3,3,11,09,05,313,30,13,04,114,,27,00,328,20*4B
$GPRMC,194417.000,A,3537.8011,S,17432.2901,E,0.00,230.14,220712,,,A*7E
$GPVTG,230.14,T,,M,0.00,N,0.0,K,A*09
$GPGGA,194422.000,3537.8011,S,17432.2901,E,1,06,1.5,103.9,M,30.6,M,,0000*46
$GPGSA,A,3,12,04,02,17,05,09,,,,,,,2.2,1.5,1.6*3E
$GPGSV,3,1,11,02,71,179,38,12,62,265,35,10,54,103,23,05,47,003,33*7D
$GPGSV,3,2,11,04,39,130,30,25,28,226,26,29,10,240,,17,10,073,29*7C
$GPGSV,3,3,11,09,05,313,30,13,04,114,,27,00,328,22*49
$GPRMC,194422.000,A,3537.8011,S,17432.2901,E,0.00,230.14,220712,,,A*78
$GPVTG,230.14,T,,M,0.00,N,0.0,K,A*09
$GPGGA,194427.000,3537.8011,S,17432.2901,E,1,06,1.5,103.9,M,30.6,M,,0000*43
$GPGSA,A,3,12,04,02,17,05,09,,,,,,,2.2,1.5,1.6*3E
$GPGSV,3,1,11,02,71,179,38,12,62,265,35,10,54,103,23,05,47,003,33*7D
$GPGSV,3,2,11,04,39,130,30,25,28,226,26,29,10,240,,17,10,073,29*7C
$GPGSV,3,3,11,09,05,313,31,13,04,114,,27,00,328,23*49
$GPRMC,194427.000,A,3537.8011,S,17432.2901,E,0.00,230.14,220712,,,A*7D
$GPVTG,230.14,T,,M,0.00,N,0.0,K,A*09
$GPGGA,194432.000,3537.8011,S,17432.2901,E,1,06,1.5,103.9,M,30.6,M,,0000*47
$GPGSA,A,3,12,04,02,17,05,09,,,,,,,2.2,1.5,1.6*3E
$GPGSV,3,1,11,02,71,179,38,12,62,265,35,10,54,103,23,05,47,003,33*7D
$GPGSV,3,2,11,04,39,130,30,25,28,226,26,29,10,240,,17,10,073,28*7D
$GPGSV,3,3,11,09,05,313,31,13,04,114,,27,00,328,24*4E
$GPRMC,194432.000,A,3537.8011,S,17432.2901,E,0.00,230.14,220712,,,A*79
$GPVTG,230.14,T,,M,0.00,N,0.0,K,A*09
$GPGGA,194437.000,3537.8011,S,17432.2901,E,1,06,1.5,103.9,M,30.6,M,,0000*42
$GPGSA,A,3,12,04,02,17,05,09,,,,,,,2.2,1.5,1.6*3E
$GPGSV,3,1,11,02,71,179,38,12,62,265,34,10,54,103,23,05,47,003,32*7D
$GPGSV,3,2,11,04,39,130,30,25,28,226,26,29,10,240,,17,10,073,28*7D
$GPGSV,3,3,11,09,05,313,30,13,04,114,,27,00,328,23*48
$GPVTG,230.14,T,,M,0.00,N,0.0,K,A*09
$GPGGA,194442.000,3537.8011,S,17432.2901,E,1,06,1.5,103.9,M,30.6,M,,0000*40
$GPGSA,A,3,12,04,02,17,05,09,,,,,,,2.2,1.5,1.6*3E
$GPGSV,3,1,11,02,71,179,38,12,62,265,34,10,54,103,23,05,47,003,32*7D
$GPGSV,3,2,11,04,39,130,30,25,28,226,26,29,10,240,,17,10,073,28*7D
$GPGSV,3,3,11,09,05,313,30,13,04,114,,27,00,328,22*49
$GPRMC,194442.000,A,3537.8011,S,17432.2901,E,0.00,230.14,220712,,,A*7E
$GPVTG,230.14,T,,M,0.00,N,0.0,K,A*09
$GPGGA,194447.000,3537.8011,S,17432.2901,E,1,06,1.5,103.9,M,30.6,M,,0000*45
$GPGSA,A,3,12,04,02,17,05,09,,,,,,,2.2,1.5,1.6*3E
$GPGSV,3,1,10,02,70,178,39,12,62,265,34,10,54,104,23,05,47,003,32*7A
$GPGSV,3,2,10,04,39,130,30,25,29,226,25,29,10,240,,17,10,073,27*71
$GPGSV,3,3,10,09,05,313,30,13,04,114,*74
$GPRMC,194447.000,A,3537.8011,S,17432.2901,E,0.00,230.14,220712,,,A*7B
$GPVTG,230.14,T,,M,0.00,N,0.0,K,A*09
$GPGGA,194452.000,3537.8011,S,17432.2901,E,1,06,1.5,103.9,M,30.6,M,,0000*41
$GPGSA,A,3,12,04,02,17,05,09,,,,,,,2.2,1.5,1.6*3E
$GPGSV,3,1,10,02,70,178,39,12,62,265,34,10,54,104,23,05,47,003,31*79
$GPGSV,3,2,10,04,39,130,30,25,29,226,25,29,10,240,,17,10,073,27*71
$GPGSV,3,3,10,09,05,313,30,13,04,114,*74
$GPRMC,194452.000,A,3537.8011,S,17432.2901,E,0.00,230.14,220712,,,A*7F
$GPVTG,230.14,T,,M,0.00,N,0.0,K,A*09
$GPGGA,194457.000,3537.8011,S,17432.2901,E,1,06,1.5,103.9,M,30.6,M,,0000*44
$GPGSA,A,3,12,04,02,17,05,09,,,,,,,2.2,1.5,1.6*3E
$GPGSV,3,1,10,02,70,178,39,12,62,265,34,10,54,104,23,05,47,003,31*79
$GPGSV,3,2,10,04,39,130,30,25,29,226,26,29,10,240,,17,10,073,27*72
$GPGSV,3,3,10,09,05,313,30,13,04,114,*74
$GPRMC,194457.000,A,3537.8011,S,17432.2901,E,0.00,230.14,220712,,,A*7A
$GPVTG,230.14,T,,M,0.00,N,0.0,K,A*09
$GPGGA,194502.000,3537.8011,S,17432.2901,E,1,06,1.5,103.9,M,30.6,M,,0000*45
$GPGSA,A,3,12,04,02,17,05,09,,,,,,,2.2,1.5,1.6*3E
$GPGSV,3,1,10,02,70,178,39,12,62,265,34,10,54,104,23,05,47,003,31*79
$GPGSV,3,2,10,04,39,130,30,25,29,226,26,29,10,240,,17,10,073,27*72
$GPGSV,3,3,10,09,05,313,31,13,04,114,*75
$GPVTG,230.14,T,,M,0.00,N,0.0,K,A*09
$GPGGA,194507.000,3537.8011,S,17432.2901,E,1,06,1.5,103.9,M,30.6,M,,0000*40
$GPGSA,A,3,12,04,02,17,05,09,,,,,,,2.2,1.5,1.6*3E
$GPGSV,3,1,10,02,70,178,39,12,62,265,34,10,54,104,23,05,47,003,30*78
$GPGSV,3,2,10,04,39,130,30,25,29,226,26,29,10,240,,17,10,073,26*73
$GPGSV,3,3,10,09,05,313,31,13,04,114,*75
$GPRMC,194507.000,A,3537.8011,S,17432.2901,E,0.00,230.14,220712,,,A*7E
$GPVTG,230.14,T,,M,0.00,N,0.0,K,A*09
$GPGGA,194512.000,3537.8011,S,17432.2901,E,1,06,1.5,103.9,M,30.6,M,,0000*44
$GPGSA,A,3,12,04,02,17,05,09,,,,,,,2.2,1.5,1.6*3E
$GPGSV,3,1,10,02,70,178,39,12,62,265,33,10,54,104,23,05,47,003,29*77
$GPGSV,3,2,10,04,39,130,30,25,29,226,26,29,10,240,,17,10,073,26*73
$GPGSV,3,3,10,09,05,313,31,13,04,114,*75
$GPRMC,194512.000,A,3537.8011,S,17432.2901,E,0.00,230.14,220712,,,A*7A
$GPVTG,230.14,T,,M,0.00,N,0.0,K,A*09
$GPGGA,194517.000,3537.8011,S,17432.2901,E,1,06,1.5,103.9,M,30.6,M,,0000*41
$GPGSA,A,3,12,04,02,17,05,09,,,,,,,2.2,1.5,1.6*3E
$GPGSV,3,1,10,02,70,178,39,12,62,266,33,10,54,104,23,05,47,003,29*74
$GPGSV,3,2,10,04,39,130,30,25,29,227,26,29,10,239,,17,09,073,23*71
$GPGSV,3,3,10,09,05,313,31,13,04,114,*75
$GPRMC,194517.000,A,3537.8011,S,17432.2901,E,0.00,230.14,220712,,,A*7F
$GPVTG,230.14,T,,M,0.00,N,0.0,K,A*09
$GPGGA,194522.000,3537.8011,S,17432.2901,E,1,06,1.5,103.9,M,30.6,M,,0000*47
$GPGSA,A,3,12,04,02,17,05,09,,,,,,,2.2,1.5,1.6*3E
$GPGSV,3,1,10,02,70,178,38,12,62,266,33,10,54,104,24,05,47,003,29*72
$GPGSV,3,2,10,04,39,130,30,25,29,227,26,29,10,239,,17,09,073,23*71
$GPGSV,3,3,10,09,05,313,31,13,04,114,*75
$GPRMC,194522.000,A,3537.8011,S,17432.2901,E,0.00,230.14,220712,,,A*79
$GPVTG,230.14,T,,M,0.00,N,0.0,K,A*09
$GPGGA,194527.000,3537.8011,S,17432.2901,E,1,06,1.5,103.9,M,30.6,M,,0000*42
$GPGSA,A,3,12,04,02,17,05,09,,,,,,,2.2,1.5,1.6*3E
$GPGSV,3,1,10,02,70,178,38,12,62,266,32,10,54,104,24,05,47,003,28*72
$GPGSV,3,2,10,04,39,130,30,25,29,227,26,29,10,239,,17,09,073,23*71
$GPGSV,3,3,10,09,05,313,31,13,04,114,*75
$GPRMC,194527.000,A,3537.8011,S,17432.2901,E,0.00,230.14,220712,,,A*7C
$GPGGA,194532.000,3537.8011,S,17432.2901,E,1,06,1.5,103.9,M,30.6,M,,0000*46
$GPGSA,A,3,12,04,02,17,05,09,,,,,,,2.2,1.5,1.6*3E
$GPGSV,3,1,10,02,70,178,38,12,62,266,32,10,54,104,24,05,47,003,27*7D
$GPGSV,3,2,10,04,39,130,30,25,29,227,26,29,10,239,,17,09,073,23*71
$GPGSV,3,3,10,09,05,313,31,13,04,114,*75
$GPRMC,194532.000,A,3537.8011,S,17432.2901,E,0.00,230.14,220712,,,A*78
$GPVTG,230.14,T,,M,0.00,N,0.0,K,A*09
$GPGGA,194537.000,3537.8011,S,17432.2901,E,1,06,1.5,103.9,M,30.6,M,,0000*43
$GPGSA,A,3,12,04,02,17,05,09,,,,,,,2.2,1.5,1.6*3E
$GPGSV,3,1,10,02,70,178,38,12,62,266,32,10,54,104,24,05,47,003,27*7D
$GPGSV,3,2,10,04,39,130,30,25,29,227,26,29,10,239,,17,09,073,23*71
$GPGSV,3,3,10,09,05,313,31,13,04,114,*75
$GPRMC,194537.000,A,3537.8011,S,17432.2901,E,0.00,230.14,220712,,,A*7D
$GPVTG,230.14,T,,M,0.00,N,0.0,K,A*09
$GPGGA,194542.000,3537.8011,S,17432.2901,E,1,06,1.5,103.9,M,30.6,M,,0000*41
$GPGSA,A,3,12,04,02,17,05,09,,,,,,,2.2,1.5,1.6*3E
$GPGSV,3,1,10,02,70,178,38,12,62,266,32,10,54,104,24,05,47,003,26*7C
$GPGSV,3,2,10,04,39,130,30,25,29,227,26,29,10,239,,17,09,073,23*71
$GPGSV,3,3,10,09,05,313,31,13,04,114,*75
$GPRMC,194542.000,A,3537.8011,S,17432.2901,E,0.00,230.14,220712,,,A*7F
$GPVTG,230.14,T,,M,0.00,N,0.0,K,A*09
$GPGGA,194547.000,3537.8011,S,17432.2901,E,1,06,1.5,103.9,M,30.6,M,,0000*44
$GPGSA,A,3,12,04,02,17,05,09,,,,,,,2.2,1.5,1.6*3E
$GPGSV,3,1,10,02,70,177,38,12,62,266,31,10,53,104,25,05,48,003,25*7A
$GPGSV,3,2,10,04,39,130,30,25,29,227,26,29,11,239,,17,09,073,22*71
$GPGSV,3,3,10,09,05,313,30,13,04,114,*74
$GPRMC,194547.000,A,3537.8011,S,17432.2901,E,0.00,230.14,220712,,,A*7A
$GPVTG,230.14,T,,M,0.00,N,0.0,K,A*09
$GPGGA,194552.000,3537.8011,S,17432.2901,E,1,06,1.5,103.9,M,30.6,M,,0000*40
$GPGSA,A,3,12,04,02,17,05,09,,,,,,,2.2,1.5,1.6*3E
$GPGSV,3,1,10,02,70,177,37,12,62,266,31,10,53,104,25,05,48,003,24*74
$GPGSV,3,2,10,04,39,130,30,25,29,227,27,29,11,239,,17,09,073,22*70
$GPGSV,3,3,10,09,05,313,30,13,04,114,*74
$GPRMC,194552.000,A,3537.8011,S,17432.2901,E,0.00,230.14,220712,,,A*7E
$GPGGA,194557.000,3537.8011,S,17432.2901,E,1,06,1.5,103.9,M,30.6,M,,0000*45
$GPGSA,A,3,12,04,02,17,05,09,,,,,,,2.2,1.5,1.6*3E
$GPGSV,3,1,10,02,70,177,37,12,62,266,31,10,53,104,25,05,48,003,23*73
$GPGSV,3,2,10,04,39,130,30,25,29,227,27,29,11,239,,17,09,073,23*71
$GPGSV,3,3,10,09,05,313,29,13,04,114,*7C
$GPRMC,194557.000,A,3537.8011,S,17432.2901,E,0.00,230.14,220712,,,A*7B
$GPVTG,230.14,T,,M,0.00,N,0.0,K,A*09
$GPGGA,194602.000,3537.8011,S,17432.2901,E,1,06,1.5,103.9,M,30.6,M,,0000*46
$GPGSA,A,3,12,04,02,17,05,09,,,,,,,2.2,1.5,1.6*3E
$GPGSV,3,1,10,02,70,177,37,12,62,266,31,10,53,104,25,05,48,003,23*73
$GPGSV,3,2,10,04,39,130,29,25,29,227,27,29,11,239,,17,09,073,22*78
$GPGSV,3,3,10,09,05,313,29,13,04,114,*7C
$GPRMC,194602.000,A,3537.8011,S,17432.2901,E,0.00,230.14,220712,,,A*78
$GPVTG,230.14,T,,M,0.00,N,0.0,K,A*09
$GPGGA,194607.000,3537.8011,S,17432.2901,E,1,06,1.5,103.9,M,30.6,M,,0000*43
$GPGSA,A,3,12,04,02,17,05,09,,,,,,,2.2,1.5,1.6*3E
$GPGSV,3,1,10,02,70,177,37,12,62,266,30,10,53,104,25,05,48,003,23*72
$GPGSV,3,2,10,04,39,130,29,25,29,227,27,29,11,239,,17,09,073,22*78
$GPGSV,3,3,10,09,05,313,29,13,04,114,*7C
$GPRMC,194607.000,A,3537.8011,S,17432.2901,E,0.00,230.14,220712,,,A*7D
$GPVTG,230.14,T,,M,0.00,N,0.0,K,A*09
$GPGGA,194612.000,3537.8011,S,17432.2901,E,1,06,1.5,103.9,M,30.6,M,,0000*47
$GPGSA,A,3,12,04,02,17,05,09,,,,,,,2.2,1.5,1.6*3E
$GPGSV,3,1,10,02,70,177,37,12,62,266,30,10,53,104,25,05,48,003,23*72
$GPGSV,3,2,10,04,39,130,29,25,29,227,27,29,11,239,,17,09,073,22*78
$GPGSV,3,3,10,09,05,313,29,13,04,114,*7C
$GPRMC,194612.000,A,3537.8011,S,17432.2901,E,0.00,230.14,220712,,,A*79
$GPVTG,230.14,T,,M,0.00,N,0.0,K,A*09
$GPGGA,194617.000,3537.8011,S,17432.2901,E,1,06,1.5,103.9,M,30.6,M,,0000*42
$GPGSA,A,3,12,04,02,17,05,09,,,,,,,2.2,1.5,1.6*3E
$GPGSV,3,1,10,02,70,176,36,12,62,267,30,10,53,105,25,05,48,004,22*74
$GPGSV,3,2,10,04,39,130,29,25,29,227,26,29,11,239,,17,09,073,23*78
$GPGSV,3,3,10,09,04,314,29,13,04,114,*7A
$GPRMC,194617.000,A,3537.8011,S,17432.2901,E,0.00,230.14,220712,,,A*7C
$GPGGA,194622.000,3537.8011,S,17432.2901,E,1,06,1.5,103.9,M,30.6,M,,0000*44
$GPGSA,A,3,12,04,02,17,05,09,,,,,,,2.2,1.5,1.6*3E
$GPGSV,3,1,10,02,70,176,36,12,62,267,30,10,53,105,25,05,48,004,21*77
$GPGSV,3,2,10,04,39,130,29,25,29,227,26,29,11,239,,17,09,073,22*79
$GPGSV,3,3,10,09,04,314,29,13,04,114,*7A
$GPRMC,194622.000,A,3537.8011,S,17432.2901,E,0.00,230.14,220712,,,A*7A
$GPVTG,230.14,T,,M,0.00,N,0.0,K,A*09
$GPGGA,194627.000,3537.8011,S,17432.2901,E,1,06,1.5,103.9,M,30.6,M,,0000*41
$GPGSA,A,3,12,04,02,17,05,09,,,,,,,2.2,1.5,1.6*3E
$GPGSV,3,1,10,02,70,176,36,12,62,267,29,10,53,105,25,05,48,004,21*7F
$GPGSV,3,2,10,04,39,130,29,25,29,227,26,29,11,239,,17,09,073,22*79
$GPGSV,3,3,10,09,04,314,29,13,04,114,*7A
$GPRMC,194627.000,A,3537.8011,S,17432.2901,E,0.00,230.14,220712,,,A*7F
$GPVTG,230.14,T,,M,0.00,N,0.0,K,A*09
$GPGGA,194632.000,3537.8011,S,17432.2901,E,1,06,1.5,103.9,M,30.6,M,,0000*45
$GPGSA,A,3,12,04,02,17,05,09,,,,,,,2.2,1.5,1.6*3E
$GPGSV,3,1,10,02,70,176,36,12,62,267,29,10,53,105,26,05,48,004,21*7C
$GPGSV,3,2,10,04,39,130,29,25,29,227,27,29,11,239,,17,09,073,18*71
$GPGSV,3,3,10,09,04,314,29,13,04,114,*7A
$GPRMC,194632.000,A,3537.8011,S,17432.2901,E,0.00,230.14,220712,,,A*7B
$GPVTG,230.14,T,,M,0.00,N,0.0,K,A*09
$GPGGA,194637.000,3537.8011,S,17432.2901,E,1,06,1.5,103.9,M,30.6,M,,0000*40
$GPGSA,A,3,12,04,02,17,05,09,,,,,,,2.2,1.5,1.6*3E
$GPGSV,3,1,10,02,70,176,36,12,62,267,29,10,53,105,26,05,48,004,21*7C
$GPGSV,3,2,10,04,39,130,29,25,29,227,27,29,11,239,,17,09,073,17*7E
$GPGSV,3,3,10,09,04,314,28,13,04,114,*7B
$GPRMC,194637.000,A,3537.8011,S,17432.2901,E,0.00,230.14,220712,,,A*7E
$GPVTG,230.14,T,,M,0.00,N,0.0,K,A*09
$GPGGA,194642.000,3537.8011,S,17432.2901,E,1,06,1.5,103.9,M,30.6,M,,0000*42
$GPGSA,A,3,12,04,02,17,05,09,,,,,,,2.2,1.5,1.6*3E
$GPGSV,3,1,10,02,70,176,36,12,62,267,30,10,53,105,26,05,48,004,21*74
$GPGSV,3,2,10,04,39,130,29,25,29,227,27,29,11,239,,17,09,073,19*70
$GPGSV,3,3,10,09,04,314,29,13,04,114,*7A
$GPRMC,194642.000,A,3537.8011,S,17432.2901,E,0.00,230.14,220712,,,A*7C
$GPGGA,194647.000,3537.8011,S,17432.2901,E,1,06,1.5,103.9,M,30.6,M,,0000*47
$GPGSA,A,3,12,04,02,17,05,09,,,,,,,2.2,1.5,1.6*3E
$GPGSV,3,1,10,02,70,176,35,12,62,267,30,10,53,105,27,05,48,004,22*75
$GPGSV,3,2,10,04,39,130,29,25,29,227,27,29,11,239,,17,09,073,18*71
$GPGSV,3,3,10,09,04,314,29,13,04,114,*7A
$GPRMC,194647.000,A,3537.8011,S,17432.2901,E,0.00,230.14,220712,,,A*79
$GPVTG,230.14,T,,M,0.00,N,0.0,K,A*09
$GPGGA,194652.000,3537.8011,S,17432.2901,E,1,06,1.5,103.9,M,30.6,M,,0000*43
$GPGSA,A,3,12,04,02,17,05,09,,,,,,,2.2,1.5,1.6*3E
$GPGSV,3,1,10,02,70,176,35,12,62,267,30,10,53,105,27,05,48,004,22*75
$GPGSV,3,2,10,04,39,130,29,25,29,227,27,29,11,239,,17,09,073,19*70
$GPGSV,3,3,10,09,04,314,28,13,04,114,*7B
$GPRMC,194652.000,A,3537.8011,S,17432.2901,E,0.00,230.14,220712,,,A*7D
$GPVTG,230.14,T,,M,0.00,N,0.0,K,A*09
$GPGGA,194657.000,3537.8011,S,17432.2901,E,1,06,1.5,103.9,M,30.6,M,,0000*46
$GPGSA,A,3,12,04,02,17,05,09,,,,,,,2.2,1.5,1.6*3E
$GPGSV,3,1,10,02,70,176,35,12,62,267,30,10,53,105,27,05,48,004,21*76
$GPGSV,3,2,10,04,39,130,29,25,29,227,27,29,11,239,,17,09,073,19*70
$GPGSV,3,3,10,09,04,314,28,13,04,114,*7B
$GPRMC,194657.000,A,3537.8011,S,17432.2901,E,0.00,230.14,220712,,,A*78
$GPVTG,230.14,T,,M,0.00,N,0.0,K,A*09
$GPGGA,194702.000,3537.8011,S,17432.2901,E,1,06,1.5,103.9,M,30.6,M,,0000*47
$GPGSA,A,3,12,04,02,17,05,09,,,,,,,2.2,1.5,1.6*3E
$GPGSV,3,1,10,02,70,176,35,12,62,267,30,10,53,105,27,05,48,004,22*75
$GPGSV,3,2,10,04,39,130,29,25,29,227,27,29,11,239,,17,09,073,21*7B
$GPGSV,3,3,10,09,04,314,28,13,04,114,*7B
$GPRMC,194702.000,A,3537.8011,S,17432.2901,E,0.00,230.14,220712,,,A*79
$GPVTG,230.14,T,,M,0.00,N,0.0,K,A*09
$GPGGA,194707.000,3537.8011,S,17432.2901,E,1,05,2.8,103.9,M,30.6,M,,0000*4F
$GPGSA,A,3,12,04,02,17,05,,,,,,,,5.3,2.8,4.5*39
$GPGSV,3,1,10,02,70,176,35,12,62,267,31,10,53,105,27,05,48,004,24*72
$GPGSV,3,2,10,04,39,130,29,25,29,227,27,29,11,239,,17,09,073,21*7B
$GPGSV,3,3,10,09,04,314,28,13,04,114,*7B
$GPRMC,194707.000,A,3537.8011,S,17432.2901,E,0.00,230.14,220712,,,A*7C
$GPGGA,194712.000,3537.8011,S,17432.2901,E,1,05,2.8,103.9,M,30.6,M,,0000*4B
$GPGSA,A,3,12,04,02,17,05,,,,,,,,5.3,2.8,4.5*39
$GPGSV,3,1,10,02,70,176,35,12,62,267,31,10,53,105,27,05,48,004,24*72
$GPGSV,3,2,10,04,39,130,29,25,29,227,27,29,11,239,,17,09,073,21*7B
$GPGSV,3,3,10,09,04,314,27,13,04,114,*74
$GPRMC,194712.000,A,3537.8011,S,17432.2901,E,0.00,230.14,220712,,,A*78
$GPVTG,230.14,T,,M,0.00,N,0.0,K,A*09
$GPGGA,194717.000,3537.8011,S,17432.2901,E,1,05,2.8,103.9,M,30.6,M,,0000*4E
$GPGSA,A,3,12,04,02,17,05,,,,,,,,5.3,2.8,4.5*39
$GPGSV,3,1,10,02,70,176,35,12,62,267,31,10,53,105,27,05,48,004,23*75
$GPGSV,3,2,10,04,39,130,29,25,29,227,27,29,11,239,,17,09,073,22*78
$GPGSV,3,3,10,09,04,314,28,13,04,114,*7B
$GPRMC,194717.000,A,3537.8011,S,17432.2901,E,0.00,230.14,220712,,,A*7D
$GPVTG,230.14,T,,M,0.00,N,0.0,K,A*09
$GPGGA,194722.000,3537.8011,S,17432.2901,E,1,05,2.8,103.9,M,30.6,M,,0000*48
$GPGSA,A,3,12,04,02,17,05,,,,,,,,5.3,2.8,4.5*39
$GPGSV,3,1,10,02,70,176,35,12,62,267,32,10,53,105,27,05,48,004,23*76
$GPGSV,3,2,10,04,39,130,29,25,29,227,27,29,11,239,,17,09,073,23*79
$GPGSV,3,3,10,09,04,314,29,13,04,114,*7A
$GPRMC,194722.000,A,3537.8011,S,17432.2901,E,0.00,230.14,220712,,,A*7B
$GPVTG,230.14,T,,M,0.00,N,0.0,K,A*09
$GPGGA,194727.000,3537.8011,S,17432.2901,E,1,05,2.8,103.9,M,30.6,M,,0000*4D
$GPGSA,A,3,12,04,02,17,05,,,,,,,,5.3,2.8,4.5*39
$GPGSV,3,1,10,02,70,176,35,12,62,267,32,10,53,105,28,05,48,004,23*79
$GPGSV,3,2,10,04,39,130,29,25,29,227,27,29,11,239,,17,09,073,24*7E
$GPGSV,3,3,10,09,04,314,29,13,04,114,*7A
$GPRMC,194727.000,A,3537.8011,S,17432.2901,E,0.00,230.14,220712,,,A*7E
$GPVTG,230.14,T,,M,0.00,N,0.0,K,A*09
$GPGGA,194732.000,3537.8011,S,17432.2901,E,1,05,2.8,103.9,M,30.6,M,,0000*49
$GPGSA,A,3,12,04,02,17,05,,,,,,,,5.3,2.8,4.5*39
$GPGSV,3,1,10,02,70,176,35,12,62,267,32,10,53,105,28,05,48,004,23*79
$GPGSV,3,2,10,04,39,130,29,25,29,227,27,29,11,239,,17,09,073,25*7F
$GPGSV,3,3,10,09,04,314,29,13,04,114,*7A
$GPRMC,194732.000,A,3537.8011,S,17432.2901,E,0.00,230.14,220712,,,A*7A
$GPGGA,194737.000,3537.8011,S,17432.2901,E,1,05,2.8,103.9,M,30.6,M,,0000*4C
$GPGSA,A,3,12,04,02,17,05,,,,,,,,5.3,2.8,4.5*39
$GPGSV,3,1,10,02,70,176,35,12,62,267,33,10,53,105,28,05,48,004,23*78
$GPGSV,3,2,10,04,39,130,29,25,29,227,27,29,11,239,,17,09,073,25*7F
$GPGSV,3,3,10,09,04,314,29,13,04,114,*7A
$GPRMC,194737.000,A,3537.8011,S,17432.2901,E,0.00,230.14,220712,,,A*7F
$GPVTG,230.14,T,,M,0.00,N,0.0,K,A*09
$GPGGA,194742.000,3537.8011,S,17432.2901,E,1,05,2.8,103.9,M,30.6,M,,0000*4E
$GPGSA,A,3,12,04,02,17,05,,,,,,,,5.3,2.8,4.5*39
$GPGSV,3,1,10,02,70,176,35,12,62,267,33,10,53,105,29,05,48,004,23*79
$GPGSV,3,2,10,04,39,130,29,25,29,227,27,29,11,239,,17,09,073,26*7C
$GPGSV,3,3,10,09,04,314,29,13,04,114,*7A
$GPRMC,194742.000,A,3537.8011,S,17432.2901,E,0.00,230.14,220712,,,A*7D
$GPVTG,230.14,T,,M,0.00,N,0.0,K,A*09
$GPGGA,194747.000,3537.8011,S,17432.2901,E,1,05,2.8,103.9,M,30.6,M,,0000*4B
$GPGSA,A,3,12,04,02,17,05,,,,,,,,5.3,2.8,4.5*39
$GPGSV,3,1,10,02,70,175,36,12,62,269,34,10,53,106,29,05,49,004,23*72
$GPGSV,3,2,10,04,38,129,29,25,30,227,27,29,11,239,,17,09,072,26*7C
$GPGSV,3,3,10,13,04,115,,09,04,314,28*7A
$GPRMC,194747.000,A,3537.8011,S,17432.2901,E,0.00,230.14,220712,,,A*78
$GPVTG,230.14,T,,M,0.00,N,0.0,K,A*09
$GPGGA,194752.000,3537.8011,S,17432.2901,E,1,05,2.8,103.9,M,30.6,M,,0000*4F
$GPGSA,A,3,12,04,02,17,05,,,,,,,,5.3,2.8,4.5*39
$GPGSV,3,1,10,02,70,175,36,12,62,269,34,10,53,106,29,05,49,004,23*72
$GPGSV,3,2,10,04,38,129,29,25,30,227,28,29,11,239,,17,09,072,27*72
$GPGSV,3,3,10,13,04,115,,09,04,314,28*7A
$GPRMC,194752.000,A,3537.8011,S,17432.2901,E,0.00,230.14,220712,,,A*7C
$GPVTG,230.14,T,,M,0.00,N,0.0,K,A*09
$GPGGA,194757.000,3537.8011,S,17432.2901,E,1,05,2.8,103.9,M,30.6,M,,0000*4A
$GPGSA,A,3,12,04,02,17,05,,,,,,,,5.3,2.8,4.5*39
$GPGSV,3,1,10,02,70,175,36,12,62,269,34,10,53,106,29,05,49,004,24*75
$GPGSV,3,2,10,04,38,129,29,25,30,227,28,29,11,239,,17,09,072,28*7D
$GPGSV,3,3,10,13,04,115,,09,04,314,29*7B
$GPRMC,194757.000,A,3537.8011,S,17432.2901,E,0.00,230.14,220712,,,A*79
$GPGGA,194802.000,3537.8011,S,17432.2901,E,1,05,2.8,103.9,M,30.6,M,,0000*45
$GPGSA,A,3,12,04,02,17,05,,,,,,,,5.3,2.8,4.5*39
$GPGSV,3,1,10,02,70,175,36,12,62,269,34,10,53,106,29,05,49,004,24*75
$GPGSV,3,2,10,04,38,129,29,25,30,227,28,29,11,239,,17,09,072,28*7D
$GPGSV,3,3,10,13,04,115,,09,04,314,29*7B
$GPRMC,194802.000,A,3537.8011,S,17432.2901,E,0.00,230.14,220712,,,A*76
$GPVTG,230.14,T,,M,0.00,N,0.0,K,A*09
$GPGGA,194807.000,3537.8011,S,17432.2901,E,1,05,2.8,103.9,M,30.6,M,,0000*40
$GPGSA,A,3,12,04,02,17,05,,,,,,,,5.3,2.8,4.5*39
$GPGSV,3,1,10,02,70,175,36,12,62,269,34,10,53,106,29,05,49,004,24*75
$GPGSV,3,2,10,04,38,129,29,25,30,227,28,29,11,239,,17,09,072,29*7C
$GPGSV,3,3,10,13,04,115,,09,04,314,29*7B
$GPRMC,194807.000,A,3537.8011,S,17432.2901,E,0.00,230.14,220712,,,A*73
$GPVTG,230.14,T,,M,0.00,N,0.0,K,A*09
$GPGGA,194812.000,3537.8011,S,17432.2901,E,1,05,2.8,103.9,M,30.6,M,,0000*44
$GPGSA,A,3,12,04,02,17,05,,,,,,,,5.3,2.8,4.4*38
$GPGSV,3,1,10,02,69,174,36,12,62,269,34,10,53,106,29,05,49,004,24*7C
$GPGSV,3,2,10,04,38,129,29,25,30,228,28,29,11,239,,17,09,072,29*73
$GPGSV,3,3,10,13,04,115,,09,04,314,29*7B
$GPRMC,194812.000,A,3537.8011,S,17432.2901,E,0.00,230.14,220712,,,A*77
$GPVTG,230.14,T,,M,0.00,N,0.0,K,A*09
$GPGGA,194817.000,3537.8011,S,17432.2901,E,1,05,2.8,103.9,M,30.6,M,,0000*41
$GPGSA,A,3,12,04,02,17,05,,,,,,,,5.3,2.8,4.4*38
$GPGSV,3,1,10,02,69,174,36,12,62,269,35,10,53,106,29,05,49,004,24*7D
$GPGSV,3,2,10,04,38,129,29,25,30,228,28,29,11,239,,17,09,072,29*73
$GPGSV,3,3,10,13,04,115,,09,04,314,29*7B
$GPRMC,194817.000,A,3537.8011,S,17432.2901,E,0.00,230.14,220712,,,A*72
$GPVTG,230.14,T,,M,0.00,N,0.0,K,A*09
$GPGGA,194822.000,3537.8011,S,17432.2901,E,1,05,2.8,103.9,M,30.6,M,,0000*47
$GPGSA,A,3,12,04,02,17,05,,,,,,,,5.2,2.8,4.4*39
$GPGSV,3,1,10,02,69,174,36,12,62,269,35,10,53,106,29,05,49,004,24*7D
$GPGSV,3,2,10,04,38,129,29,25,30,228,28,29,11,239,,17,09,072,29*73
$GPGSV,3,3,10,13,04,115,,09,04,314,29*7B
$GPRMC,194822.000,A,3537.8011,S,17432.2901,E,0.00,230.14,220712,,,A*74
$GPGGA,194827.000,3537.8011,S,17432.2901,E,1,05,2.8,103.9,M,30.6,M,,0000*42
$GPGSA,A,3,12,04,02,17,05,,,,,,,,5.2,2.8,4.4*39
$GPGSV,3,1,10,02,69,174,36,12,62,269,35,10,53,106,28,05,49,004,23*7B
$GPGSV,3,2,10,04,38,129,29,25,30,228,28,29,11,239,,17,09,072,29*73
$GPGSV,3,3,10,13,04,115,,09,04,314,29*7B
$GPRMC,194827.000,A,3537.8011,S,17432.2901,E,0.00,230.14,220712,,,A*71
$GPVTG,230.14,T,,M,0.00,N,0.0,K,A*09
$GPGGA,194832.000,3537.8011,S,17432.2901,E,1,06,1.3,103.9,M,30.6,M,,0000*4D
$GPGSA,A,3,12,04,02,17,05,25,,,,,,,2.3,1.3,1.9*38
$GPGSV,3,1,10,02,69,174,36,12,62,269,35,10,53,106,28,05,49,004,23*7B
$GPGSV,3,2,10,04,38,129,30,25,30,228,28,29,11,239,,17,09,072,29*7B
$GPGSV,3,3,10,13,04,115,,09,04,314,29*7B
$GPRMC,194832.000,A,3537.8011,S,17432.2901,E,0.00,230.14,220712,,,A*75
$GPVTG,230.14,T,,M,0.00,N,0.0,K,A*09
$GPGGA,194837.000,3537.8011,S,17432.2901,E,1,06,1.3,103.9,M,30.6,M,,0000*48
$GPGSA,A,3,12,04,02,17,05,25,,,,,,,2.3,1.3,1.9*38
$GPGSV,3,1,10,02,69,174,36,12,63,270,36,10,53,106,28,05,49,004,22*70
$GPGSV,3,2,10,04,38,129,30,25,30,228,28,29,12,239,,17,09,072,29*78
$GPGSV,3,3,10,13,04,115,,09,04,314,29*7B
$GPRMC,194837.000,A,3537.8011,S,17432.2901,E,0.00,230.14,220712,,,A*70
$GPVTG,230.14,T,,M,0.00,N,0.0,K,A*09
$GPGGA,194842.000,3537.8011,S,17432.2901,E,1,06,1.3,103.9,M,30.6,M,,0000*4A
$GPGSA,A,3,12,04,02,17,05,25,,,,,,,2.3,1.3,1.9*38
$GPGSV,3,1,10,02,69,174,36,12,63,270,36,10,53,106,28,05,49,004,20*72
$GPGSV,3,2,10,04,38,129,30,25,30,228,28,29,12,239,,17,08,072,29*79
$GPGSV,3,3,10,13,04,115,,09,04,314,29*7B
$GPRMC,194842.000,A,3537.8011,S,17432.2901,E,0.00,230.14,220712,,,A*72
$GPVTG,230.14,T,,M,0.00,N,0.0,K,A*09
$GPGGA,194847.000,3537.8011,S,17432.2901,E,1,06,1.3,103.9,M,30.6,M,,0000*4F
$GPGSA,A,3,12,04,02,17,05,25,,,,,,,2.3,1.3,1.9*38
$GPGSV,3,1,10,02,69,174,36,12,63,270,36,10,53,107,28,05,49,004,19*79
$GPGSV,3,2,10,04,38,129,30,25,30,228,28,29,12,239,,17,08,072,29*79
$GPGSV,3,3,10,13,04,115,,09,04,314,29*7B
$GPRMC,194847.000,A,3537.8011,S,17432.2901,E,0.00,230.14,220712,,,A*77
$GPGGA,194852.000,3537.8011,S,17432.2901,E,1,06,1.3,103.9,M,30.6,M,,0000*4B
$GPGSA,A,3,12,04,02,17,05,25,,,,,,,2.3,1.3,1.9*38
$GPGSV,3,1,10,02,69,174,36,12,63,270,36,10,53,107,28,05,49,004,18*78
$GPGSV,3,2,10,04,38,129,30,25,30,228,28,29,12,239,,17,08,072,29*79
$GPGSV,3,3,10,13,04,115,,09,04,314,28*7A
$GPRMC,194852.000,A,3537.8011,S,17432.2901,E,0.00,230.14,220712,,,A*73
$GPVTG,230.14,T,,M,0.00,N,0.0,K,A*09
$GPGGA,194857.000,3537.8011,S,17432.2901,E,1,06,1.3,103.9,M,30.6,M,,0000*4E
$GPGSA,A,3,12,04,02,17,05,25,,,,,,,2.3,1.3,1.9*38
$GPGSV,3,1,10,02,69,174,36,12,63,270,36,10,53,107,28,05,49,004,17*77
$GPGSV,3,2,10,04,38,129,30,25,30,228,28,29,12,239,,17,08,072,29*79
$GPGSV,3,3,10,13,04,115,,09,04,314,28*7A
$GPRMC,194857.000,A,3537.8011,S,17432.2901,E,0.00,230.14,220712,,,A*76
$GPVTG,230.14,T,,M,0.00,N,0.0,K,A*09
$GPGGA,194902.000,3537.8011,S,17432.2901,E,1,06,1.3,103.9,M,30.6,M,,0000*4F
$GPGSA,A,3,12,04,02,17,05,25,,,,,,,2.3,1.3,1.9*38
$GPGSV,3,1,10,02,69,174,36,12,63,270,36,10,53,107,28,05,49,004,16*76
$GPGSV,3,2,10,04,38,129,31,25,30,228,27,29,12,239,,17,08,072,30*7F
$GPGSV,3,3,10,13,04,115,,09,04,314,28*7A
$GPRMC,194902.000,A,3537.8011,S,17432.2901,E,0.00,230.14,220712,,,A*77
$GPVTG,230.14,T,,M,0.00,N,0.0,K,A*09
$GPGGA,194907.000,3537.8011,S,17432.2901,E,1,05,1.8,103.9,M,30.6,M,,0000*42
$GPGSA,A,3,12,04,02,17,25,,,,,,,,2.7,1.8,1.9*32
$GPGSV,3,1,10,02,69,174,36,12,63,270,36,10,53,107,28,05,49,004,*71
$GPGSV,3,2,10,04,38,129,31,25,30,228,27,29,12,239,,17,08,072,30*7F
$GPGSV,3,3,10,13,04,115,,09,04,314,28*7A
$GPRMC,194907.000,A,3537.8011,S,17432.2901,E,0.00,230.14,220712,,,A*72
$GPVTG,230.14,T,,M,0.00,N,0.0,K,A*09
$GPGGA,194912.000,3537.8011,S,17432.2901,E,1,05,1.8,103.9,M,30.6,M,,0000*46
$GPGSA,A,3,12,04,02,17,25,,,,,,,,2.7,1.8,1.9*32
$GPGSV,3,1,10,02,69,173,36,12,63,270,36,10,53,107,28,05,49,004,*76
$GPGSV,3,2,10,04,37,129,31,25,30,228,27,29,12,238,,17,08,072,30*71
$GPGSV,3,3,10,13,04,116,,09,04,315,29*79
$GPRMC,194912.000,A,3537.8011,S,17432.2901,E,0.00,230.14,220712,,,A*76
$GPGGA,194917.000,3537.8011,S,17432.2901,E,1,05,1.8,103.9,M,30.6,M,,0000*43
$GPGSA,A,3,12,04,02,17,25,,,,,,,,2.7,1.8,1.9*32
$GPGSV,3,1,10,02,69,173,36,12,63,270,36,10,53,107,29,05,49,004,*77
$GPGSV,3,2,10,04,37,129,31,25,30,228,27,29,12,238,,17,08,072,30*71
$GPGSV,3,3,10,13,04,116,,09,04,315,28*78
$GPRMC,194917.000,A,3537.8011,S,17432.2901,E,0.00,230.14,220712,,,A*73
$GPVTG,230.14,T,,M,0.00,N,0.0,K,A*09
$GPGGA,194922.000,3537.8011,S,17432.2901,E,1,05,1.8,103.9,M,30.6,M,,0000*45
$GPGSA,A,3,12,04,02,17,25,,,,,,,,2.7,1.8,1.9*32
$GPGSV,3,1,10,02,69,173,36,12,63,270,36,10,53,107,29,05,49,004,*77
$GPGSV,3,2,10,04,37,129,31,25,30,228,26,29,12,238,,17,08,072,29*78
$GPGSV,3,3,10,13,04,116,,09,04,315,28*78
$GPRMC,194922.000,A,3537.8011,S,17432.2901,E,0.00,230.14,220712,,,A*75
$GPVTG,230.14,T,,M,0.00,N,0.0,K,A*09
$GPGGA,194927.000,3537.8011,S,17432.2901,E,1,05,1.8,103.9,M,30.6,M,,0000*40
$GPGSA,A,3,12,04,02,17,25,,,,,,,,2.7,1.8,1.9*32
$GPGSV,3,1,10,02,69,173,36,12,63,270,36,10,53,107,29,05,49,004,*77
$GPGSV,3,2,10,04,37,129,31,25,30,228,26,29,12,238,,17,08,072,29*78
$GPGSV,3,3,10,13,04,116,,09,04,315,28*78
$GPRMC,194927.000,A,3537.8011,S,17432.2901,E,0.00,230.14,220712,,,A*70
$GPVTG,230.14,T,,M,0.00,N,0.0,K,A*09
$GPGGA,194932.000,3537.8011,S,17432.2901,E,1,05,1.8,103.9,M,30.6,M,,0000*44
$GPGSA,A,3,12,04,02,17,25,,,,,,,,2.7,1.8,1.9*32
$GPGSV,3,1,10,02,69,173,36,12,63,270,36,10,53,107,29,05,49,004,*77
$GPGSV,3,2,10,04,37,129,31,25,30,228,26,29,12,238,,17,08,072,29*78
$GPGSV,3,3,10,13,04,116,,09,04,315,27*77
$GPRMC,194932.000,A,3537.8011,S,17432.2901,E,0.00,230.14,220712,,,A*74
$GPVTG,230.14,T,,M,0.00,N,0.0,K,A*09
$GPGGA,194937.000,3537.8011,S,17432.2901,E,1,05,1.8,103.9,M,30.6,M,,0000*41
$GPGSA,A,3,12,04,02,17,25,,,,,,,,2.7,1.8,1.9*32
$GPGSV,3,1,10,02,69,173,36,12,63,270,36,10,53,107,29,05,49,004,*77
$GPGSV,3,2,10,04,37,129,31,25,30,228,25,29,12,238,,17,08,072,29*7B
$GPGSV,3,3,10,13,04,116,,09,04,315,26*76
$GPRMC,194937.000,A,3537.8011,S,17432.2901,E,0.00,230.14,220712,,,A*71
$GPGGA,194942.000,3537.8011,S,17432.2901,E,1,06,1.3,103.9,M,30.6,M,,0000*4B
$GPGSA,A,3,05,12,04,02,17,25,,,,,,,2.3,1.3,1.9*38
$GPGSV,3,1,10,02,69,173,36,12,63,271,36,10,53,107,29,05,50,004,16*79
$GPGSV,3,2,10,04,37,129,32,25,31,228,25,29,12,238,,17,08,072,29*79
$GPGSV,3,3,10,13,05,116,,09,03,315,25*73
$GPRMC,194942.000,A,3537.8011,S,17432.2901,E,0.00,230.14,220712,,,A*73
$GPVTG,230.14,T,,M,0.00,N,0.0,K,A*09
$GPGGA,194947.000,3537.8011,S,17432.2901,E,1,06,1.3,103.9,M,30.6,M,,0000*4E
$GPGSA,A,3,05,12,04,02,17,25,,,,,,,2.3,1.3,1.9*38
$GPGSV,3,1,10,02,69,172,35,12,63,271,37,10,53,107,29,05,50,004,14*78
$GPGSV,3,2,10,04,37,129,32,25,31,228,25,29,12,238,,17,08,071,28*7B
$GPGSV,3,3,10,13,05,116,,09,03,315,25*73
$GPRMC,194947.000,A,3537.8011,S,17432.2901,E,0.00,230.14,220712,,,A*76
$GPVTG,230.14,T,,M,0.00,N,0.0,K,A*09
$GPGGA,194952.000,3537.8011,S,17432.2901,E,1,05,1.8,103.9,M,30.6,M,,0000*42
$GPGSA,A,3,12,04,02,17,25,,,,,,,,2.7,1.8,1.9*32
$GPGSV,3,1,10,02,69,172,35,12,63,271,37,10,53,107,29,05,50,004,*7D
$GPGSV,3,2,10,04,37,129,32,25,31,228,24,29,12,238,,17,08,071,28*7A
$GPGSV,3,3,10,13,05,116,,09,03,315,24*72
$GPRMC,194952.000,A,3537.8011,S,17432.2901,E,0.00,230.14,220712,,,A*72
$GPVTG,230.14,T,,M,0.00,N,0.0,K,A*09
$GPGGA,194957.000,3537.8011,S,17432.2901,E,1,05,1.8,103.9,M,30.6,M,,0000*47
$GPGSA,A,3,12,04,02,17,25,,,,,,,,2.7,1.8,1.9*32
$GPGSV,3,1,10,02,69,172,35,12,63,271,37,10,53,107,29,05,50,004,*7D
$GPGSV,3,2,10,04,37,129,32,25,31,228,24,29,12,238,,17,08,071,28*7A
$GPRMC,194957.000,A,3537.8011,S,17432.2901,E,0.00,230.14,220712,,,A*77
$GPVTG,230.14,T,,M,0.00,N,0.0,K,A*09
$GPGGA,195002.000,3537.8011,S,17432.2901,E,1,05,1.8,103.9,M,30.6,M,,0000*4F
$GPGSA,A,3,12,04,02,17,25,,,,,,,,2.7,1.8,1.9*32
$GPGSV,3,1,10,02,69,172,35,12,63,271,37,10,53,107,29,05,50,004,*7D
$GPGSV,3,2,10,04,37,129,32,25,31,228,24,29,12,238,,17,08,071,28*7A
$GPGSV,3,3,10,13,05,116,,09,03,315,22*74
$GPRMC,195002.000,A,3537.8011,S,17432.2901,E,0.00,230.14,220712,,,A*7F
$GPVTG,230.14,T,,M,0.00,N,0.0,K,A*09
$GPGGA,195007.000,3537.8011,S,17432.2901,E,1,05,1.8,103.9,M,30.6,M,,0000*4A
$GPGSA,A,3,12,04,02,17,25,,,,,,,,2.7,1.8,1.9*32
$GPGSV,3,1,10,02,69,172,35,12,63,271,36,10,53,107,29,05,50,004,*7C
$GPGSV,3,2,10,04,37,129,32,25,31,228,24,29,12,238,,17,08,071,28*7A
$GPGSV,3,3,10,13,05,116,,09,03,315,21*77
$GPRMC,195007.000,A,3537.8011,S,17432.2901,E,0.00,230.14,220712,,,A*7A
$GPVTG,230.14,T,,M,0.00,N,0.0,K,A*09
$GPGGA,195012.000,3537.8011,S,17432.2901,E,1,06,1.3,103.9,M,30.6,M,,0000*46
$GPGSA,A,3,05,12,04,02,17,25,,,,,,,2.3,1.3,1.9*38
$GPGSV,3,1,10,02,69,172,35,12,63,271,36,10,53,107,30,05,50,004,14*71
$GPGSV,3,2,10,04,37,129,32,25,31,228,23,29,12,238,,17,08,071,28*7D
$GPGSV,3,3,10,13,05,116,,09,03,315,21*77
$GPRMC,195012.000,A,3537.8011,S,17432.2901,E,0.00,230.14,220712,,,A*7E
$GPVTG,230.14,T,,M,0.00,N,0.0,K,A*09
$GPGGA,195017.000,3537.8011,S,17432.2901,E,1,06,1.3,103.9,M,30.6,M,,0000*43
$GPGSA,A,3,05,12,04,02,17,25,,,,,,,2.3,1.3,1.9*38
$GPGSV,3,1,10,02,69,172,34,12,63,271,36,10,53,108,30,05,50,004,14*7F
$GPGSV,3,2,10,04,37,129,32,25,31,228,23,29,12,238,,17,08,071,27*72
$GPGSV,3,3,10,13,05,116,,09,03,315,20*76
$GPRMC,195017.000,A,3537.8011,S,17432.2901,E,0.00,230.14,220712,,,A*7B
$GPVTG,230.14,T,,M,0.00,N,0.0,K,A*09
$GPGGA,195022.000,3537.8011,S,17432.2901,E,1,06,1.3,103.9,M,30.6,M,,0000*45
$GPGSA,A,3,05,12,04,02,17,25,,,,,,,2.3,1.3,1.9*38
$GPGSV,3,1,10,02,69,172,34,12,63,271,36,10,53,108,30,05,50,004,14*7F
$GPGSV,3,2,10,04,37,129,32,25,31,228,23,29,12,238,,17,08,071,27*72
$GPGSV,3,3,10,13,05,116,,09,03,315,20*76
$GPVTG,230.14,T,,M,0.00,N,0.0,K,A*09
$GPGGA,195027.000,3537.8011,S,17432.2901,E,1,06,1.3,103.9,M,30.6,M,,0000*40
$GPGSA,A,3,05,12,04,02,17,25,,,,,,,2.3,1.3,1.9*38
$GPGSV,3,1,10,02,69,172,34,12,63,271,37,10,53,108,30,05,50,004,14*7E
$GPGSV,3,2,10,04,37,129,32,25,31,228,23,29,12,238,,17,08,071,27*72
$GPGSV,3,3,10,13,05,116,,09,03,315,19*7C
$GPRMC,195027.000,A,3537.8011,S,17432.2901,E,0.00,230.14,220712,,,A*78
$GPVTG,230.14,T,,M,0.00,N,0.0,K,A*09
$GPGGA,195032.000,3537.8011,S,17432.2901,E,1,06,1.3,103.9,M,30.6,M,,0000*44
$GPGSA,A,3,05,12,04,02,17,25,,,,,,,2.3,1.3,1.9*38
$GPGSV,3,1,10,02,69,172,34,12,63,271,37,10,53,108,30,05,50,004,17*7D
$GPGSV,3,2,10,04,37,129,32,25,31,228,23,29,12,238,,17,08,071,27*72
$GPGSV,3,3,10,13,05,116,,09,03,315,18*7D
$GPRMC,195032.000,A,3537.8011,S,17432.2901,E,0.00,230.14,220712,,,A*7C
$GPVTG,230.14,T,,M,0.00,N,0.0,K,A*09
$GPGGA,195037.000,3537.8011,S,17432.2901,E,1,06,1.3,103.9,M,30.6,M,,0000*41
$GPGSA,A,3,05,12,04,02,17,25,,,,,,,2.3,1.3,1.9*38
$GPGSV,3,1,10,02,69,172,34,12,63,271,37,10,53,108,30,05,50,004,18*72
$GPGSV,3,2,10,04,37,129,32,25,31,228,23,29,12,238,,17,08,071,27*72
$GPGSV,3,3,10,13,05,116,,09,03,315,18*7D
$GPRMC,195037.000,A,3537.8011,S,17432.2901,E,0.00,230.14,220712,,,A*79
$GPVTG,230.14,T,,M,0.00,N,0.0,K,A*09
$GPGGA,195042.000,3537.8011,S,17432.2901,E,1,06,1.3,103.9,M,30.6,M,,0000*43
$GPGSA,A,3,05,12,04,02,17,25,,,,,,,2.3,1.3,1.9*38
$GPGSV,3,1,10,02,69,171,34,12,63,272,37,10,53,108,30,05,50,004,19*73
$GPGSV,3,2,10,04,37,128,32,25,31,228,23,29,13,238,,17,08,071,26*73
$GPGSV,3,3,10,13,05,116,,09,03,315,17*72
$GPRMC,195042.000,A,3537.8011,S,17432.2901,E,0.00,230.14,220712,,,A*7B
$GPVTG,230.14,T,,M,0.00,N,0.0,K,A*09
$GPGGA,195047.000,3537.8011,S,17432.2901,E,1,06,1.3,103.9,M,30.6,M,,0000*46
$GPGSA,A,3,05,12,04,02,17,25,,,,,,,2.3,1.3,1.9*38
$GPGSV,3,1,10,02,69,171,34,12,63,272,37,10,53,108,29,05,50,004,20*71
$GPGSV,3,2,10,04,37,128,32,25,31,228,23,29,13,238,,17,08,071,26*73
$GPGSV,3,3,10,13,05,116,,09,03,315,16*73
$GPVTG,230.14,T,,M,0.00,N,0.0,K,A*09
$GPGGA,195052.000,3537.8011,S,17432.2901,E,1,06,1.3,103.9,M,30.6,M,,0000*42
$GPGSA,A,3,05,12,04,02,17,25,,,,,,,2.3,1.3,1.9*38
$GPGSV,3,1,10,02,69,171,34,12,63,272,37,10,53,108,29,05,50,004,21*70
$GPGSV,3,2,10,04,37,128,32,25,31,228,23,29,13,238,,17,08,071,25*70
$GPGSV,3,3,10,13,05,116,,09,03,315,17*72
$GPRMC,195052.000,A,3537.8011,S,17432.2901,E,0.00,230.14,220712,,,A*7A
$GPVTG,230.14,T,,M,0.00,N,0.0,K,A*09
$GPGGA,195057.000,3537.8011,S,17432.2901,E,1,06,1.3,103.9,M,30.6,M,,0000*47
$GPGSA,A,3,05,12,04,02,17,25,,,,,,,2.3,1.3,1.9*38
$GPGSV,3,1,10,02,69,171,34,12,63,272,37,10,53,108,29,05,50,004,22*73
$GPGSV,3,2,10,04,37,128,32,25,31,228,23,29,13,238,,17,08,071,19*7F
$GPGSV,3,3,10,13,05,116,,09,03,315,18*7D
$GPRMC,195057.000,A,3537.8011,S,17432.2901,E,0.00,230.14,220712,,,A*7F
$GPVTG,230.14,T,,M,0.00,N,0.0,K,A*09
$GPGGA,195102.000,3537.8011,S,17432.2901,E,1,06,1.3,103.9,M,30.6,M,,0000*46
$GPGSA,A,3,05,12,04,02,17,25,,,,,,,2.3,1.3,1.9*38
$GPGSV,3,1,10,02,69,171,34,12,63,272,37,10,53,108,29,05,50,004,22*73
$GPGSV,3,2,10,04,37,128,32,25,31,228,22,29,13,238,,17,08,071,21*75
$GPGSV,3,3,10,13,05,116,,09,03,315,18*7D
$GPRMC,195102.000,A,3537.8011,S,17432.2901,E,0.00,230.14,220712,,,A*7E
$GPVTG,230.14,T,,M,0.00,N,0.0,K,A*09
$GPGGA,195107.000,3537.8011,S,17432.2901,E,1,06,1.3,103.9,M,30.6,M,,0000*43
$GPGSA,A,3,05,12,04,02,17,25,,,,,,,2.3,1.3,1.9*38
$GPGSV,3,1,10,02,69,171,34,12,63,272,37,10,53,108,29,05,50,004,23*72
$GPGSV,3,2,10,04,37,128,32,25,31,228,22,29,13,238,,17,08,071,20*74
$GPGSV,3,3,10,13,05,116,,09,03,315,18*7D
$GPRMC,195107.000,A,3537.8011,S,17432.2901,E,0.00,230.14,220712,,,A*7B
$GPVTG,230.14,T,,M,0.00,N,0.0,K,A*09
$GPGGA,195112.000,3537.8011,S,17432.2901,E,1,06,1.3,103.9,M,30.6,M,,0000*47
$GPGSA,A,3,05,12,04,02,17,25,,,,,,,2.3,1.3,1.9*38
$GPGSV,3,1,10,02,69,171,34,12,63,272,37,10,52,108,28,05,50,004,23*72
$GPGSV,3,2,10,04,37,128,32,25,31,229,22,29,13,238,,17,08,071,20*75
$GPGSV,3,3,10,13,05,116,,09,03,315,19*7C
$GPRMC,195112.000,A,3537.8011,S,17432.2901,E,0.00,230.14,220712,,,A*7F
$GPGGA,195117.000,3537.8011,S,17432.2901,E,1,06,1.3,103.9,M,30.6,M,,0000*42
$GPGSA,A,3,05,12,04,02,17,25,,,,,,,2.3,1.3,1.9*38
$GPGSV,3,1,10,02,69,171,33,12,63,273,37,10,52,108,28,05,50,004,23*74
$GPGSV,3,2,10,04,37,128,32,25,31,229,22,29,13,238,,17,08,071,19*7F
$GPGSV,3,3,10,13,05,116,,09,03,315,20*76
$GPRMC,195117.000,A,3537.8011,S,17432.2901,E,0.00,230.14,220712,,,A*7A
$GPVTG,230.14,T,,M,0.00,N,0.0,K,A*09
$GPGGA,195122.000,3537.8011,S,17432.2901,E,1,06,1.3,103.9,M,30.6,M,,0000*44
$GPGSA,A,3,05,12,04,02,17,25,,,,,,,2.3,1.3,1.9*38
$GPGSV,3,1,10,02,69,171,33,12,63,273,37,10,52,108,28,05,50,004,23*74
$GPGSV,3,2,10,04,37,128,33,25,31,229,22,29,13,238,,17,08,071,19*7E
$GPGSV,3,3,10,13,05,116,,09,03,315,21*77
$GPRMC,195122.000,A,3537.8011,S,17432.2901,E,0.00,230.14,220712,,,A*7C
$GPVTG,230.14,T,,M,0.00,N,0.0,K,A*09
$GPGGA,195127.000,3537.8011,S,17432.2901,E,1,06,1.3,103.9,M,30.6,M,,0000*41
$GPGSA,A,3,05,12,04,02,17,25,,,,,,,2.3,1.3,1.9*38
$GPGSV,3,1,10,02,69,171,33,12,63,273,37,10,52,108,29,05,50,004,23*75
$GPGSV,3,2,10,04,37,128,33,25,31,229,21,29,13,238,,17,08,071,20*77
$GPGSV,3,3,10,13,05,116,,09,03,315,21*77
$GPRMC,195127.000,A,3537.8011,S,17432.2901,E,0.00,230.14,220712,,,A*79
$GPVTG,230.14,T,,M,0.00,N,0.0,K,A*09
$GPGGA,195132.000,3537.8011,S,17432.2901,E,1,06,1.3,103.9,M,30.6,M,,0000*45
$GPGSA,A,3,05,12,04,02,17,25,,,,,,,2.3,1.3,1.9*38
$GPGSV,3,1,10,02,69,171,33,12,63,273,37,10,52,108,28,05,50,004,28*7F
$GPGSV,3,2,10,04,37,128,33,25,31,229,20,29,13,238,,17,08,071,15*70
$GPGSV,3,3,10,13,05,116,,09,03,315,21*77
$GPRMC,195132.000,A,3537.8011,S,17432.2901,E,0.00,230.14,220712,,,A*7D
$GPVTG,230.14,T,,M,0.00,N,0.0,K,A*09
$GPGGA,195137.000,3537.8011,S,17432.2901,E,1,06,1.3,103.9,M,30.6,M,,0000*40
$GPGSA,A,3,05,12,04,02,17,25,,,,,,,2.3,1.3,1.9*38
$GPGSV,3,1,10,02,69,171,32,12,63,273,32,10,52,108,28,05,50,004,28*7B
$GPGSV,3,2,10,04,37,128,33,25,31,229,20,29,13,238,,17,08,071,26*70
$GPGSV,3,3,10,13,05,116,,09,03,315,27*71
$GPRMC,195137.000,A,3537.8011,S,17432.2901,E,0.00,230.14,220712,,,A*78
                                                                                                                              
                                                                         